{
  "events": [
    {
      "id": 1,
      "name": "O Python do vovô não sobe mais",
      "description": "Amet minim mollit non deserunt ullamco est sit aliqua dolor do amet sint.",
      "location": {
        "city": "São Paulo",
        "uf": "SP"
      }
    },
    {
      "id": 2,
      "name": "Todo mundo null",
      "description": "Amet minim mollit non deserunt ullamco est sit aliqua dolor do amet sint.",
      "location": {
        "city": "Florianópolis",
        "uf": "SC"
      }
    },
    {
      "id": 3,
      "name": "Hoje dou exception",
      "description": "Amet minim mollit non deserunt ullamco est sit aliqua dolor do amet sint.",
      "location": {
        "city": "Curitiba",
        "uf": "PR"
      }
    },
    {
      "id": 4,
      "name": "Manda Node",
      "description": "Amet minim mollit non deserunt ullamco est sit aliqua dolor do amet sint.",
      "location": {
        "city": "Salvador",
        "uf": "BA"
      }
    },
    {
      "id": 5,
      "name": "Só no back-end",
      "description": "Amet minim mollit non deserunt ullamco est sit aliqua dolor do amet sint.",
      "location": {
        "city": "São Paulo",
        "uf": "SP"
      }
    },
    {
      "id": 6,
      "name": "Esse anel não é de Ruby",
      "description": "Amet minim mollit non deserunt ullamco est sit aliqua dolor do amet sint.",
      "location": {
        "city": "São Paulo",
        "uf": "SP"
      }
    },
    {
      "id": 7,
      "name": "Pimenta no C# dos outros é refresco",
      "description": "Amet minim mollit non deserunt ullamco est sit aliqua dolor do amet sint.",
      "location": {
        "city": "Rio de Janeiro",
        "uf": "RJ"
      }
    },
    {
      "id": 8,
      "name": "EnCACHE aqui",
      "description": "Amet minim mollit non deserunt ullamco est sit aliqua dolor do amet sint.",
      "location": {
        "city": "Porto Alegre",
        "uf": "RS"
      }
    },
    {
      "id": 9,
      "name": "Não valho nada mas JAVA li",
      "description": "Amet minim mollit non deserunt ullamco est sit aliqua dolor do amet sint.",
      "location": {
        "city": "São Paulo",
        "uf": "SP"
      }
    }
  ]
}
